[
  {
    "name": "Browar Jamrozowa Polana",
    "id": "1457f05e-4ca2-4788-b76e-8c77a3d38998",
    "brewery_type": "micro",
    "address_1": "Olimpijska 1",
    "address_2": null,
    "address_3": null,
    "city": "Duszniki-Zdrój",
    "state_province": "dolnośląskie",
    "postal_code": "57-340",
    "country": "Poland",
    "longitude": 16.367628,
    "latitude": 50.3893103,
    "phone": null,
    "website_url": null,
    "state": "dolnośląskie",
    "street": "Olimpijska 1"
  },
  {
    "name": "Heathen Brewers Partnership",
    "id": "0e33f372-58f3-4a7e-9126-18898e957351",
    "brewery_type": "micro",
    "address_1": "The Broadway",
    "address_2": null,
    "address_3": null,
    "city": "Haywards Heath",
    "state_province": "West Sussex",
    "postal_code": "RH16 3AS",
    "country": "England",
    "longitude": -0.105976,
    "latitude": 51.000799,
    "phone": "1444456217",
    "website_url": "http://www.heathenbrewers.co.uk/",
    "state": "West Sussex",
    "street": "The Broadway"
  },
  {
    "name": "Blue Owl Brewing",
    "id": "5c4c95ae-4128-4510-b2c7-2a7c483de5a2",
    "brewery_type": "micro",
    "address_1": "2400 E Cesar Chavez St Ste 300",
    "address_2": null,
    "address_3": null,
    "city": "Austin",
    "state_province": "Texas",
    "postal_code": "78702-4638",
    "country": "United States",
    "longitude": -97.7189581,
    "latitude": 30.2545583,
    "phone": "5125931262",
    "website_url": "http://www.blueowlbrewing.com",
    "state": "Texas",
    "street": "2400 E Cesar Chavez St Ste 300"
  },
  {
    "name": "Asylum Brewing",
    "id": "7b552890-643d-4615-a73b-791cff62299b",
    "brewery_type": "micro",
    "address_1": "2970 E. La Palma Ave. Suite D",
    "address_2": null,
    "address_3": null,
    "city": "Anaheim",
    "state_province": "California",
    "postal_code": "92806",
    "country": "United States",
    "longitude": -117.8612062,
    "latitude": 33.84988007,
    "phone": "9494495191",
    "website_url": "http://Www.asylumbrewing.beer",
    "state": "California",
    "street": "2970 E. La Palma Ave. Suite D"
  },
  {
    "name": "Mudshark Brewing Co",
    "id": "b9694c75-826d-486d-82ca-b21db45e8008",
    "brewery_type": "micro",
    "address_1": "210 Swanson Ave",
    "address_2": null,
    "address_3": null,
    "city": "Lake Havasu City",
    "state_province": "Arizona",
    "postal_code": "86403-0966",
    "country": "United States",
    "longitude": -114.3424335,
    "latitude": 34.46897363,
    "phone": "9284532981",
    "website_url": "http://www.mudsharkbrewingco.com",
    "state": "Arizona",
    "street": "210 Swanson Ave"
  }
]